{
  "data":[
    {"title":"北京市大兴区红黄蓝幼儿园",
     "address":"北京市大兴区黄村中里39号",
     "type":"普惠性民办园",
     "recruitDate":"",
     "money":"老生 750,新生 900",
     "tel":"",
     "comment":"",
     "lng":116.349338,
     "lat":39.741904
    },
    {"title":"北京市大兴区红黄蓝红木林幼儿园",
     "address":"北京市大兴区枣园东巷3号院7号楼",
     "type":"普惠性民办园",
     "recruitDate":"",
     "money":"老生 750新生 900",
     "tel":"(010)60215582",
     "comment":"",
     "lng":116.332542,
     "lat":39.759002
    },
    {"title":"北京市大兴区小星星幼儿园",
     "address":"北京市大兴区郁花园一里甲28号",
     "type":"普惠性民办园",
     "recruitDate":"",
     "money":900,
     "tel":"(010)60258754",
     "comment":"",
     "lng":116.344376,
     "lat":39.779405
    },
    {"title":"北京市大兴区琴岛金钰幼儿园",
     "address":"北京市大兴区金惠园四里",
     "type":"普惠性民办园",
     "recruitDate":"",
     "money":900,
     "tel":"010-60226363",
     "comment":"",
     "lng":116.33613,
     "lat":39.777056
    },
    {"title":"北京市大兴区快乐时光幼儿园",
     "address":"北京市大兴区永华路兴政家园小区",
     "type":"普惠性民办园",
     "recruitDate":"",
     "money":900,
     "tel":"",
     "comment":"",
     "lng":116.337505,
     "lat":39.733377
    },
    {"title":"北京市大兴区西岛幼儿园",
     "address":"北京市大兴区永旺路6号院11号楼",
     "type":"普惠性民办园",
     "recruitDate":"",
     "money":900,
     "tel":"010-89280880 15801206997",
     "comment":"",
     "lng":116.325508,
     "lat":39.684775
    },
    {"title":"北京市大兴区十一建华实验幼儿园",
     "address":"北京市大兴区顺驰领海小区",
     "type":"普惠性民办园",
     "recruitDate":"",
     "money":900,
     "tel":"010-60239381 010-60239382",
     "comment":"",
     "lng":116.327527,
     "lat":39.7799
    },
    {"title":"北京市大兴区瀚林幼儿园",
     "address":"北京市大兴区兴华大街永华南里5号",
     "type":"普惠性民办园",
     "recruitDate":"",
     "money":900,
     "tel":"010-69202781",
     "comment":"",
     "lng":116.338548,
     "lat":39.731491
    },
    {"title":"北京市大兴区金色宝贝幼儿园(春天宝贝双语艺术幼儿园)",
     "address":"北京市大兴区丽园B区12号楼底商",
     "type":"普惠性民办园",
     "recruitDate":"",
     "money":900,
     "tel":"010-60211441",
     "comment":"",
     "lng":116.327479,
     "lat":39.758512
    },
    {"title":"北京市大兴区高新幼儿园",
     "address":"北京市大兴区永华南里13号楼",
     "type":"普惠性民办园",
     "recruitDate":"",
     "money":900,
     "tel":"15611927588",
     "comment":"",
     "lng":116.33449,
     "lat":39.731796
    },
    {"title":"北京市大兴区瑞海英才幼儿园",
     "address":"北京市大兴区西红门镇瑞海家园二区26号楼",
     "type":"普惠性民办园",
     "recruitDate":"",
     "money":900,
     "tel":"010-60291876",
     "comment":"",
     "lng":116.339088,
     "lat":39.792187
    },
    {"title":"北京市大兴区金色阳光幼儿园",
     "address":"北京市大兴区兴盛园6号",
     "type":"普惠性民办园",
     "recruitDate":"",
     "money":900,
     "tel":"",
     "comment":"",
     "lng":116.32256,
     "lat":39.764377
    },
    {"title":"北京市大兴区红太阳幼儿园",
     "address":"北京市大兴区兴丰北大街自来水公司宿舍院内5号平房（北京市大兴区清源路黄村镇政府对面？？？）",
     "type":"普惠性民办园",
     "recruitDate":"",
     "money":900,
     "tel":"010-69299866 13811233804",
     "comment":"不确定是否是这个",
     "lng":116.346927,
     "lat":39.747762
    },
    {"title":"北京市大兴区幸福泉翡翠城幼儿园",
     "address":"北京市大兴区翡翠城西区香留园109号",
     "type":"普惠性民办园",
     "recruitDate":"",
     "money":900,
     "tel":"010-60232049 010-60231677",
     "comment":"",
     "lng":116.324348,
     "lat":39.77521
    },
    {"title":"北京市大兴区德津公学幼儿园",
     "address":"北京市大兴区丽园路30号院1号楼",
     "type":"普惠性民办园",
     "recruitDate":"",
     "money":900,
     "tel":"13651130780",
     "comment":"",
     "lng":116.319775,
     "lat":39.755831
    },
    {"title":"北京市大兴区清城启航幼儿园",
     "address":"北京市大兴区兴华路9号",
     "type":"普惠性民办园",
     "recruitDate":"",
     "money":900,
     "tel":"010-69247232",
     "comment":"",
     "lng":116.336825,
     "lat":39.741655
    },
    {"title":"北京市大兴区高米店街道源点社区办园点",
     "address":"北京市大兴区兴盛街85—87号",
     "type":"普惠性民办园",
     "recruitDate":"",
     "money":900,
     "tel":"",
     "comment":"",
     "lng":116.323176,
     "lat":39.77802
    },
    {"title":"北京市大兴区天宫院街道万科橙韦恩社区办园点",
     "address":"北京市大兴区天河西路2号院11号楼",
     "type":"普惠性民办园",
     "recruitDate":"",
     "money":900,
     "tel":"",
     "comment":"",
     "lng":116.329995,
     "lat":39.694538
    },
    {"title":"北京市大兴区清源街道爱幼园社区办园点",
     "address":"北京市大兴区枣园路隆大特产公司2、3、4号",
     "type":"普惠性民办园",
     "recruitDate":"",
     "money":900,
     "tel":"",
     "comment":"",
     "lng":116.340034,
     "lat":39.75931
    },
    {"title":"北京市大兴区清源街道睿博社区办园点",
     "address":"北京市大兴区黄村镇滨河西里",
     "type":"普惠性民办园",
     "recruitDate":"",
     "money":900,
     "tel":"",
     "comment":"",
     "lng":116.345103,
     "lat":39.756528
    },
    {"title":"北京市大兴区清源街道耐思社区办园点",
     "address":"北京市大兴区康庄路口福海大厦二层",
     "type":"普惠性民办园",
     "recruitDate":"",
     "money":900,
     "tel":"(010)60228688,18501128808",
     "comment":"",
     "lng":116.348201,
     "lat":39.76386
    },
    {"title":"北京市大兴区清源街道启明星社区办园点",
     "address":"北京市大兴区彩虹新城兴华北路（二段）78号院155、156、157号",
     "type":"普惠性民办园",
     "recruitDate":"",
     "money":900,
     "tel":"13520517248",
     "comment":"",
     "lng":116.344261,
     "lat":39.753086
    },
    {"title":"北京市大兴区高米店街道好孩子社区办园点",
     "address":"北京市大兴区兴涛社区甲32号",
     "type":"普惠性民办园",
     "recruitDate":"",
     "money":900,
     "tel":"",
     "comment":"",
     "lng":116.330134,
     "lat":39.771227
    },
    {"title":"北京市大兴区高米店街道花束之家社区办园点",
     "address":"北京市大兴区兴丰大街（一段）18号院25号楼",
     "type":"普惠性民办园",
     "recruitDate":"",
     "money":900,
     "tel":"13718539280",
     "comment":"",
     "lng":116.343264,
     "lat":39.772266
    }
  ]
}
