{
	"data": [
		{ 	
			"lng": 116.384115,
			"lat": 39.862195,
			"title": "北戏书馆",
			"price": 20,
			"phone": "010-67572221-2197",
			"address": "丰台区马家堡东里8号北京戏曲艺术职业学院内（少儿戏剧场4层）",
			"comment": "每周六晚19:00-21:00演出"
		},
		{ 	
			"lng": 116.390834,
			"lat": 39.895052,
			"title": "湖广会馆大戏楼",
			"price": 10,
			"phone": "010-83551680",
			"address": "北京市西城区虎坊路3号",
			"comment": ""
		},
		{ 	
			"lng": 116.393558,
			"lat": 39.896332,
			"title": "纪晓岚故居",
			"price": 10,
			"phone": "010-63036712",
			"address": "北京市珠市口西大街241号",
			"comment": ""
		},
		{ 	
			"lng": 116.532584,
			"lat": 39.916801,
			"title": "中国紫檀博物馆",
			"price": 50,
			"phone": "010-85752818",
			"address": "北京市朝阳区建国路23号",
			"comment": "每周一闭馆，春节三十至初三闭馆"
		},
		{ 	
			"lng": 116.507681,
			"lat": 39.99011,
			"title": "3D壁画馆",
			"price": 75,
			"phone": "010-84599470",
			"address": "北京市朝阳区751D PARK时尚设计广场C12",
			"comment": ""
		},
		{ 	
			"lng": 116.507547,
			"lat": 39.990169,
			"title": "数字海洋馆",
			"price": 50,
			"phone": "010-84599470",
			"address": "北京市朝阳区751D PARK时尚设计广场C12",
			"comment": ""
		},
		{ 	
			"lng": 116.619686,
			"lat": 39.973159,
			"title": "蓝调国际马术",
			"price": 258,
			"phone": "18514426602",
			"address": "花儿马术庄园、蓝调国际马术俱乐部二选一",
			"comment": "限一次"
		},
		{ 	
			"lng": 116.54724,
			"lat": 39.904722,
			"title": "北京科举匾额博物馆",
			"price": 49,
			"phone": "010-87739693",
			"address": "北京市朝阳区高碑店文化街1366号",
			"comment": "每周一闭馆"
		},
		{ 	
			"lng": 116.086286,
			"lat": 40.061584,
			"title": "北京鹫峰国家森林公园",
			"price": 15,
			"phone": "010-62455825",
			"address": "北京市海淀区苏家坨镇秀峰寺路5号",
			"comment": ""
		},
		{ 	
			"lng": 116.089265,
			"lat": 40.076181,
			"title": "阳台山",
			"price": 10,
			"phone": "010-62456816",
			"address": "北京市海淀区苏家坨镇旅游路旁",
			"comment": ""
		},
		{ 	
			"lng": 116.184544,
			"lat": 40.119205,
			"title": "田妈妈蘑法森林",
			"price": 50,
			"phone": "400-659-7188",
			"address": "北京市海淀区上庄镇前章村南生态林",
			"comment": "每周一闭园"
		},
		{ 	
			"lng": 116.148458,
			"lat": 40.057155,
			"title": "狂飙乐园",
			"price": 20,
			"phone": "010-62455588",
			"address": "北京市海淀区苏家坨镇南安河路1号",
			"comment": ""
		},
		{ 	
			"lng": 116.148458,
			"lat": 40.057155,
			"title": "中国京西皮影非遗园",
			"price": 100,
			"phone": "13691504939",
			"address": "北京市海淀区上白庄水洼路东500米",
			"comment": "周一闭馆"
		},
		{ 	
			"lng": 116.344656,
			"lat": 39.974701,
			"title": "大钟寺古钟博物馆",
			"price": 30,
			"phone": "010-82139050",
			"address": "北京市海淀区北三环西路甲31号",
			"comment": "每周一闭馆，限3次，16:00停止入馆"
		},
		{ 	
			"lng": 116.698484,
			"lat": 39.71392,
			"title": "花仙子万花园",
			"price": 50,
			"phone": "010-80535066",
			"address": "通州区于家务乡国际种业科技园",
			"comment": "4月26日-10月26日"
		},
		{ 	
			"lng": 116.725435,
			"lat": 39.965111,
			"title": "Arting 3D艺术馆",
			"price": 120,
			"phone": "010-69590881",
			"address": "北京市通州区宋庄镇小堡环岛东北角",
			"comment": ""
		},
		{ 	
			"lng": 115.782221,
			"lat": 40.468633,
			"title": "古崖居风景区",
			"price": 55,
			"phone": "010-69119228",
			"address": "北京市延庆区张山营镇",
			"comment": "清明五一十一半价，8:30-16:30"
		},
		{ 	
			"lng": 115.906993,
			"lat": 40.534776,
			"title": "玉渡山风景区",
			"price": 60,
			"phone": "010-69190336",
			"address": "延庆区张山营镇",
			"comment": "5月4日-9月29日，8:30-15:30"
		},
		{ 	
			"lng": 116.471166,
			"lat": 40.689478,
			"title": "滴水壶景区",
			"price": 25,
			"phone": "010-57128248",
			"address": "延庆区千家店镇",
			"comment": "4月1日-10月31日，限1次"
		},
		{ 	
			"lng": 116.28915,
			"lat": 40.444852,
			"title": "莲花山森林公园",
			"price": 20,
			"phone": "010-60189429",
			"address": "延庆",
			"comment": "5月1日-10月15日"
		},
		{ 	
			"lng": 116.044506,
			"lat": 40.344582,
			"title": "水关长城",
			"price": 40,
			"phone": "010-81181038",
			"address": "八达岭",
			"comment": "8:30-16:30"
		},
		{ 	
			"lng": 115.984126,
			"lat": 40.344634,
			"title": "古长城",
			"price": 40,
			"phone": "010-69120990",
			"address": "延庆八达岭镇东沟村",
			"comment": ""
		},
		{ 	
			"lng": 116.231487,
			"lat": 40.375105,
			"title": "大龄沟猕猴桃谷",
			"price": 20,
			"phone": "010-69700838",
			"address": "昌平区十三陵镇",
			"comment": "3月15日-10月31日"
		},
		{ 	
			"lng": 116.172305,
			"lat": 40.351079,
			"title": "双龙山森林公园",
			"price": 15,
			"phone": "18700700878",
			"address": "十三陵镇礁臼峪景区外路口左转三公里",
			"comment": "5月1日-10月30日"
		},
		{ 	
			"lng": 116.172305,
			"lat": 40.351079,
			"title": "洼里博物馆",
			"price": 30,
			"phone": "010-61714991",
			"address": "昌平区小汤山",
			"comment": "端午十一中秋无效"
		},
		{ 	
			"lng": 116.466056,
			"lat": 40.28323,
			"title": "大杨山国家森林公园",
			"price": 25,
			"phone": "010-61796474",
			"address": "昌平延寿镇",
			"comment": "4月16日-10月30日"
		},
		{ 	
			"lng": 116.15407,
			"lat": 40.24883,
			"title": "艺麓园",
			"price": 68,
			"phone": "010-89799102",
			"address": "昌平区南口镇",
			"comment": ""
		},
		{ 	
			"lng": 116.232082,
			"lat": 40.263915,
			"title": "总神道",
			"price": 30,
			"phone": "010-60761334",
			"address": "昌平区十三陵镇长陵",
			"comment": ""
		},
		{ 	
			"lng": 116.078663,
			"lat": 40.299791,
			"title": "居庸关长城",
			"price": 40,
			"phone": "010-69771665",
			"address": "昌平区南口镇",
			"comment": ""
		},
		{ 	
			"lng": 116.105136,
			"lat": 40.133596,
			"title": "后花园",
			"price": 60,
			"phone": "010-60707588",
			"address": "昌平区中关村阳坊",
			"comment": ""
		},
		{ 	
			"lng": 116.22017,
			"lat": 40.234282,
			"title": "好莱坞汽车特技表演馆",
			"price": 298,
			"phone": "010-57411750",
			"address": "昌平区西关环岛北侧金肆维企业院内",
			"comment": "6月30日前每周六日12点左右"
		},
		{ 	
			"lng": 117.368983,
			"lat": 40.640222,
			"title": "雾灵西峰",
			"price": 40,
			"phone": "010-81023988",
			"address": "密云县新城子镇",
			"comment": "10月31日"
		},
		{ 	
			"lng": 116.820405,
			"lat": 40.620383,
			"title": "捧河湾风景区",
			"price": 28,
			"phone": "13716322028",
			"address": "密云县石城镇",
			"comment": "10月31日"
		},
		{ 	
			"lng": 116.760289,
			"lat": 40.639792,
			"title": "清凉谷",
			"price": 47,
			"phone": "010-69015455",
			"address": "密云县石城镇",
			"comment": "10月10日"
		},
		{ 	
			"lng": 116.725866,
			"lat": 40.622237,
			"title": "千尺珍珠瀑",
			"price": 25,
			"phone": "010-69015455",
			"address": "密云县石城镇",
			"comment": "10月10日"
		},
		{ 	
			"lng": 116.787084,
			"lat": 40.601784,
			"title": "精灵谷",
			"price": 30,
			"phone": "010-69016269",
			"address": "密云水库西北角",
			"comment": "10月25日"
		},
		{ 	
			"lng": 116.873389,
			"lat": 40.407718,
			"title": "冶仙塔风景区",
			"price": 70,
			"phone": "010-69091290",
			"address": "密云县檀营镇",
			"comment": "限一次"
		},
		{ 	
			"lng": 117.227224,
			"lat": 40.66505,
			"title": "紫海香堤香草艺术庄园",
			"price": 60,
			"phone": "010-81052525",
			"address": "密云古北口镇",
			"comment": "10月25日"
		},
		{ 	
			"lng": 116.794207,
			"lat": 40.597723,
			"title": "天门山风景区",
			"price": 32,
			"phone": "010-69016228",
			"address": "密云石城镇",
			"comment": "10月30日"
		},
		{ 	
			"lng": 117.503579,
			"lat": 40.651883,
			"title": "东极仙谷",
			"price": 25,
			"phone": "010-81020950",
			"address": "密云新城子镇",
			"comment": "10月15日"
		},
		{ 	
			"lng": 116.716717,
			"lat": 40.5891,
			"title": "云蒙山国家森林公园",
			"price": 35,
			"phone": "010-61622381",
			"address": "怀柔区",
			"comment": "10月31日"
		},
		{ 	
			"lng": 116.792416,
			"lat": 40.494972,
			"title": "云龙涧景区",
			"price": 35,
			"phone": "010-69017888",
			"address": "密云",
			"comment": "10月31日"
		}
	]
}